[
	{
		"name": "Sportforum Leipzig",
		"latitude": 51.34631,
		"longitude": 12.35065,
		"events": [
			{
				"key": "2010-firmenlauf-leipzig",
				"name": "3. Leipziger Firmenlauf (2010)"
			},
			{
				"key": "2011-firmenlauf-leipzig",
				"name": "4. Leipziger Firmenlauf (2011)"
			},
			{
				"key": "2012-firmenlauf-leipzig",
				"name": "5. Leipziger Firmenlauf (2012)"
			},
			{
				"key": "2013-firmenlauf-leipzig",
				"name": "6. Leipziger Firmenlauf (2013)"
			},
			{
				"key": "2014-firmenlauf-leipzig",
				"name": "7. Leipziger Firmenlauf (2014)"
			}
		]
	},
	{
		"name": "Kleinmesse am Cottaweg, Leipzig",
		"latitude": 51.33944,
		"longitude": 12.34275,
		"events": [
			{
				"key": "2015-firmenlauf-leipzig",
				"name": "8. Leipziger Firmenlauf (2015)"
			}
		]
	},
	{
		"name": "Markkleeberger See",
		"latitude": 51.25534,
		"longitude": 12.42442,
		"events": [
			{
				"key": "2012-cross-de-luxe",
				"name": "CROSS DE LUXE (2012)"
			},
			{
				"key": "2013-cross-de-luxe",
				"name": "CROSS DE LUXE (2013)"
			},
			{
				"key": "2014-cross-de-luxe",
				"name": "CROSS DE LUXE (2014)"
			},
			{
				"key": "2015-cross-de-luxe",
				"name": "CROSS DE LUXE (2015)"
			}
		]
	},
	{
		"name": "Fürsten Forest, Fürstenau",
		"latitude": 52.53311,
		"longitude": 7.65893,
		"events": [
			{
				"key": "2013-tough-mudder-nordwestdeutschland",
				"name": "Tough Mudder - Nordwestdeutschland (2013)"
			}
		]
	},
	{
		"name": "Lausitzring, Klettwitz",
		"latitude": 51.53698,
		"longitude": 13.92824,
		"events": [
			{
				"key": "2013-tough-mudder-berlin-brandenburg",
				"name": "Tough Mudder - Berlin-Brandenburg (2013)"
			},
			{
				"key": "2014-tough-mudder-berlin-brandenburg",
				"name": "Tough Mudder - Berlin-Brandenburg (2014)"
			}
		]
	},
	{
		"name": "Olympiapark, München",
		"latitude": 48.1729,
		"longitude": 11.5438,
		"events": [
			{
				"key": "2014-spartan-race-sprint-muenchen",
				"name": "Spartan Race - München (Sprint) (2014)"
			}
		]
	},
	{
		"name": "Nürburgring, Nürburg",
		"latitude": 50.333909,
		"longitude": 6.94706,
		"events": [
			{
				"key": "2014-fishermans-friend-strongmanrun-nuerburgring",
				"name": "Fisherman's Friend StrongmanRun - Nürbirgring (2014)"
			}
		]
	},
	{
		"name": "Hofgut Luisenlust, Hirzenhain",
		"latitude": 50.410219,
		"longitude": 9.136841,
		"events": [
			{
				"key": "2014-tough-mudder-rhein-main",
				"name": "Tough Mudder - Rhein-Main (2014)"
			}
		]
	},
	{
		"name": "Serengeti Park, Hodenhagen",
		"latitude": 52.754,
		"longitude": 9.6205,
		"events": [
			{
				"key": "2014-survival-run",
				"name": "Survival Run (2014)"
			}
		]
	},
	{
		"name": "Pippingford Park, East Sussex, UK",
		"latitude": 51.05738,
		"longitude": 0.05457,
		"events": [
			{
				"key": "2014-spartan-race-beast-south-london",
				"name": "Spartan Race - South London (Beast) (2014)"
			}
		]
	},
	{
		"name": "Fockeberg, Leipzig",
		"latitude": 51.3187,
		"longitude": 12.3655,
		"events": [
			{
				"key": "2014-fockeberglauf",
				"name": "47. Fockeberglauf (2014)"
			},
			{
				"key": "2015-fockeberglauf",
				"name": "49. Fockeberglauf (2015)"
			}
		]
	},
	{
		"name": "Motocross Bielstein, Wiehl",
		"latitude": 50.955130,
		"longitude": 7.493133,
		"events": [
			{
				"key": "2014-spartan-race-super-koeln",
				"name": "Spartan Race - Köln (Super) (2014)"
			}
		]
	},
	{
		"name": "Ammelshainer Schloss, Ammelshain",
		"latitude": 51.294884,
		"longitude": 12.636619,
		"events": [
			{
				"key": "2014-ammelshainer-schlosslauf",
				"name": "8. Ammelshainer Schlosslauf (2014)"
			},
			{
				"key": "2015-ammelshainer-schlosslauf",
				"name": "9. Ammelshainer Schlosslauf (2015)"
			}
		]
	},
	{
		"name": "Festwiese Röntgenstraße, Rudolstadt",
		"latitude": 50.7181048,
		"longitude": 11.3534061,
		"events": [
			{
				"key": "2014-getting-tough-race",
				"name": "Getting Tough - The Race III (2014)"
			},
			{
				"key": "2015-getting-tough-race",
				"name": "Getting Tough - The Race IV (2015)"
			}
		]
	},
	{
		"name": "Jagdschloss Herdringen, Arnsberg",
		"latitude": 51.42115,
		"longitude": 7.96941,
		"events": [
			{
				"key": "2015-tough-mudder-nrw",
				"name": "Tough Mudder - NRW (2015)"
			}
		]
	},
	{
		"name": "Culden Faw, Fawley, Henley on Thames, UK",
		"latitude": 51.562231,
		"longitude": -0.894241,
		"events": [
			{
				"key": "2015-tough-mudder-london-west",
				"name": "Tough Mudder - London West (2015)"
			}
		]
	},
	{
		"name": "Boughton House, Kettering, UK",
		"latitude": 52.4048609,
		"longitude": -0.6648779,
		"events": [
			{
				"key": "2015-tough-mudder-midlands",
				"name": "Tough Mudder - Midlands (2015)"
			}
		]
	},
	{
		"name": "Drumlanrig Castle, Thornhill, UK",
		"latitude": 55.27341,
		"longitude": -3.8064312,
		"events": [
			{
				"key": "2015-tough-mudder-scotland",
				"name": "Tough Mudder - Scotland (2015)"
			}
		]
	},
	{
		"name": "Reiter- und Ferienhof Severloh, Hermannsburg",
		"latitude": 52.767945,
		"longitude": 10.118963,
		"events": [
			{
				"key": "2015-tough-mudder-norddeutschland",
				"name": "Tough Mudder - Norddeutschland (2015)"
			}
		]
	},
	{
		"name": "Ferropolis, Gräfenhainichen",
		"latitude": 51.758284,
		"longitude": 12.447138,
		"events": [
			{
				"key": "2015-fishermans-friend-strongmanrun-ferropolis",
				"name": "Fisherman's Friend StrongmanRun - Ferropolis (2015)"
			}
		]
	},
	{
		"name": "Wassertrüdingen am Oettinger Forst",
		"latitude": 49.0376213,
		"longitude": 10.5981058,
		"events": [
			{
				"key": "2015-tough-mudder-sueddeutschland",
				"name": "Tough Mudder - Süddeutschland (2015)"
			}
		]
	},
	{
		"name": "St. Leonard bei Salzburg",
		"latitude": 47.7224695,
		"longitude": 13.0550638,
		"events": [
			{
				"key": "2015-wildsau-salzburg",
				"name": "Wildsau Dirt Run - Salzburg (2015)"
			}
		]
	},
	{
		"name": "Ski Areal Kouty, Kouty nad Desnou, CZ",
		"latitude": 50.099103,
		"longitude": 17.119918,
		"events": [
			{
				"key": "2015-spartan-race-beast-kouty",
				"name": "Spartan Race - Kouty (Beast) (2015)"
			}
		]
	},
	{
		"name": "Trabrennbahn Karlshorst, Berlin",
		"latitude": 52.4751809,
		"longitude": 13.5268016,
		"events": [
			{
				"key": "2015-xletix-berlin-city",
				"name": "XLETIX Challenge - Berlin City (2015)"
			}
		]
	}
]
