[
	{
		"name": "Sportforum Leipzig",
		"latitude": 51.34631,
		"longitude": 12.35065,
		"events": [
			{
				"key": "2010-firmenlauf-leipzig",
				"name": "3. Leipziger Firmenlauf (2010)"
			},
			{
				"key": "2011-firmenlauf-leipzig",
				"name": "4. Leipziger Firmenlauf (2011)"
			},
			{
				"key": "2012-firmenlauf-leipzig",
				"name": "5. Leipziger Firmenlauf (2012)"
			},
			{
				"key": "2013-firmenlauf-leipzig",
				"name": "6. Leipziger Firmenlauf (2013)"
			},
			{
				"key": "2014-firmenlauf-leipzig",
				"name": "7. Leipziger Firmenlauf (2014)"
			}
		]
	},
	{
		"name": "Markkleeberger See",
		"latitude": 51.25534,
		"longitude": 12.42442,
		"events": [
			{
				"key": "2012-cross-de-luxe",
				"name": "CROSS DE LUXE 2012"
			},
			{
				"key": "2013-cross-de-luxe",
				"name": "CROSS DE LUXE 2013"
			},
			{
				"key": "2014-cross-de-luxe",
				"name": "CROSS DE LUXE 2014"
			},
			{
				"key": "2015-cross-de-luxe",
				"name": "CROSS DE LUXE 2015"
			}
		]
	},
	{
		"name": "Fürsten Forest, Fürstenau",
		"latitude": 52.53311,
		"longitude": 7.65893,
		"events": [
			{
				"key": "2013-tough-mudder-nordwestdeutschland",
				"name": "Tough Mudder 2013 - Nordwestdeutschland"
			}
		]
	},
	{
		"name": "Lausitzring, Klettwitz",
		"latitude": 51.53698,
		"longitude": 13.92824,
		"events": [
			{
				"key": "2013-tough-mudder-berlin-brandenburg",
				"name": "Tough Mudder 2013 - Berlin-Brandenburg"
			},
			{
				"key": "2014-tough-mudder-berlin-brandenburg",
				"name": "Tough Mudder 2014 - Berlin-Brandenburg"
			}
		]
	},
	{
		"name": "Olympiapark, München",
		"latitude": 48.1729,
		"longitude": 11.5438,
		"events": [
			{
				"key": "2014-spartan-race-sprint-muenchen",
				"name": "Spartan Race 2014 - München (Sprint)"
			}
		]
	},
	{
		"name": "Nürburgring, Nürburg",
		"latitude": 50.333909,
		"longitude": 6.94706,
		"events": [
			{
				"key": "2014-fishermans-friend-strongmanrun-nuerburgring",
				"name": "Fisherman's Friend StrongmanRun 2014 - Nürbirgring"
			}
		]
	},
	{
		"name": "Hofgut Luisenlust, Hirzenhain",
		"latitude": 50.410219,
		"longitude": 9.136841,
		"events": [
			{
				"key": "2014-tough-mudder-rhein-main",
				"name": "Tough Mudder 2014 - Rhein-Main"
			}
		]
	},
	{
		"name": "Serengeti Park, Hodenhagen",
		"latitude": 52.754,
		"longitude": 9.6205,
		"events": [
			{
				"key": "2014-survival-run",
				"name": "Survival Run 2014"
			}
		]
	},
	{
		"name": "Pippingford Park, East Sussex, UK",
		"latitude": 51.05738,
		"longitude": 0.05457,
		"events": [
			{
				"key": "2014-spartan-race-beast-south-london",
				"name": "Spartan Race 2014 - South London (Beast)"
			}
		]
	},
	{
		"name": "Fockeberg, Leipzig",
		"latitude": 51.3187,
		"longitude": 12.3655,
		"events": [
			{
				"key": "2014-fockeberglauf",
				"name": "47. Fockeberglauf (2014)"
			},
			{
				"key": "2015-fockeberglauf",
				"name": "49. Fockeberglauf (2015)"
			}
		]
	},
	{
		"name": "Motocross Bielstein, Wiehl",
		"latitude": 50.955130,
		"longitude": 7.493133,
		"events": [
			{
				"key": "2014-spartan-race-super-koeln",
				"name": "Spartan Race 2014 - Köln (Super)"
			}
		]
	},
	{
		"name": "Ammelshainer Schloss, Ammelshain",
		"latitude": 51.294884,
		"longitude": 12.636619,
		"events": [
			{
				"key": "2014-ammelshainer-schlosslauf",
				"name": "8. Ammelshainer Schlosslauf 2014"
			}
		]
	},
	{
		"name": "Festwiese Röntgenstraße, Rudolstadt",
		"latitude": 50.7181048,
		"longitude": 11.3534061,
		"events": [
			{
				"key": "2014-getting-tough-race",
				"name": "Getting Tough - The Race III (2014)"
			},
			{
				"key": "2015-getting-tough-race",
				"name": "Getting Tough - The Race IV (2015)"
			}
		]
	},
	{
		"name": "Jagdschloss Herdringen, Arnsberg",
		"latitude": 51.42115,
		"longitude": 7.96941,
		"events": [
			{
				"key": "2015-tough-mudder-nrw",
				"name": "Tough Mudder 2015 - NRW"
			}
		]
	},
	{
		"name": "Culden Faw, Fawley, Henley on Thames, UK",
		"latitude": 51.562231,
		"longitude": -0.894241,
		"events": [
			{
				"key": "2015-tough-mudder-london-west",
				"name": "Tough Mudder 2015 - London West"
			}
		]
	},
	{
		"name": "Boughton House, Kettering, UK",
		"latitude": 52.4048609,
		"longitude": -0.6648779,
		"events": [
			{
				"key": "2015-tough-mudder-midlands",
				"name": "Tough Mudder 2015 - Midlands"
			}
		]
	},
	{
		"name": "Drumlanrig Castle, Thornhill, UK",
		"latitude": 55.27341,
		"longitude": -3.8064312,
		"events": [
			{
				"key": "2015-tough-mudder-scotland",
				"name": "Tough Mudder 2015 - Scotland"
			}
		]
	},
	{
		"name": "Reiter- und Ferienhof Severloh, Hermannsburg",
		"latitude": 52.767945,
		"longitude": 10.118963,
		"events": [
			{
				"key": "2015-tough-mudder-norddeutschland",
				"name": "Tough Mudder 2015 - Norddeutschland"
			}
		]
	},
	{
		"name": "Ferropolis, Gräfenhainichen",
		"latitude": 51.758284,
		"longitude": 12.447138,
		"events": [
			{
				"key": "2015-fishermans-friend-strongmanrun-ferropolis",
				"name": "Fisherman's Friend StrongmanRun 2015 - Ferropolis"
			}
		]
	},
	{
		"name": "Wassertrüdingen am Oettinger Forst",
		"latitude": 49.0376213,
		"longitude": 10.5981058,
		"events": [
			{
				"key": "2015-tough-mudder-sueddeutschland",
				"name": "Tough Mudder 2015 - Süddeutschland"
			}
		]
	},
	{
		"name": "St. Leonard bei Salzburg",
		"latitude": 47.7224695,
		"longitude": 13.0550638,
		"events": [
			{
				"key": "2015-wildsau-salzburg",
				"name": "Wildsau Dirt Race 2015 - Salzburg"
			}
		]
	}
]